{
  "branches": [
    {
      "id": "1",
      "name": "Fair Câmbio - São José",
      "phone": "(48) 9969-72142",
      "address": "Av. Presidente Kennedy, 1953 - Campinas, São José - SC, 88102-401",
      "googleMapsLink": "https://maps.google.com/maps?q=-27.5954,-48.5480",
      "hours": {
        "weekdays": "09:00 às 17:30",
        "saturday": "Fechado",
        "sunday": "Fechado"
      }
    },
    {
      "id": "2",
      "name": "Fair Câmbio - Balneário Camboriú",
      "phone": "(47) 9928-72777",
      "address": "Av. Brasil, 1615 - Sala 22 - Centro, Balneário Camboriú - SC, 88330-048",
      "googleMapsLink": "https://maps.google.com/maps?q=-27.0006,-48.6262",
      "hours": {
        "weekdays": "09:00 às 17:00",
        "saturday": "09:00 às 12:00",
        "sunday": "Fechado"
      }
    },
    {
      "id": "3",
      "name": "Fair Câmbio - Bombinhas",
      "phone": "(47) 9998-12517",
      "address": "Av. Leopoldo Zarling, 1221 - Bombas, Bombinhas - SC, 88215-000",
      "googleMapsLink": "https://maps.google.com/maps?q=-27.1486,-48.4814",
      "hours": {
        "weekdays": "09:00 às 17:00",
        "saturday": "Fechado",
        "sunday": "Fechado"
      }
    },
    {
      "id": "4",
      "name": "Fair Câmbio - Brusque",
      "phone": "(47) 9913-90101",
      "address": "Rua Centro, 100 - Centro, Brusque - SC, 88350-000",
      "googleMapsLink": "https://maps.google.com/maps?q=-27.0981,-48.9158",
      "hours": {
        "weekdays": "09:00 às 17:00",
        "saturday": "Fechado",
        "sunday": "Fechado"
      }
    },
    {
      "id": "5",
      "name": "Fair Câmbio - Criciúma",
      "phone": "(48) 9985-65822",
      "address": "R. Cel. Pedro Benedet, 190 - Centro, Criciúma - SC, 88801-250",
      "googleMapsLink": "https://maps.google.com/maps?q=-28.6774,-49.3695",
      "hours": {
        "weekdays": "09:00 às 17:00",
        "saturday": "Fechado",
        "sunday": "Fechado"
      }
    }
  ],
  "lastUpdate": "2025-09-23T04:54:18.338Z"
}